[
  { "name": "ADANA", "lat": 37, "long": 35.3213333 },
  { "name": "ADIYAMAN", "lat": 37.7641667, "long": 38.2761667 },
  { "name": "AFYONKARAHİSAR", "lat": 38.75, "long": 30.55 },
  { "name": "AĞRI", "lat": 39.7194444, "long": 43.0516667 },
  { "name": "AMASYA", "lat": 40.65, "long": 35.8333333 },
  { "name": "ANKARA", "lat": 39.92077, "long": 32.85411 },
  { "name": "ANTALYA", "lat": 36.908054, "long": 30.695556 },
  { "name": "ARDAHAN", "lat": 41.1105556, "long": 42.7022222 },
  { "name": "ARTVİN", "lat": 41.1833333, "long": 41.8166667 },
  { "name": "AYDIN", "lat": 37.8444444, "long": 27.845 },
  { "name": "BALIKESİR", "lat": 39.648056, "long": 27.890278 },
  { "name": "BARTIN", "lat": 41.635, "long": 32.3375 },
  { "name": "BATMAN", "lat": 37.8872222, "long": 41.1355556 },
  { "name": "BAYBURT", "lat": 40.2583333, "long": 40.2247222 },
  { "name": "BİLECİK", "lat": 40.1508333, "long": 29.9833333 },
  { "name": "BİNGÖL", "lat": 38.885, "long": 40.4936111 },
  { "name": "BİTLİS", "lat": 38.4, "long": 42.1166667 },
  { "name": "BOLU", "lat": 40.7333333, "long": 31.6 },
  { "name": "BURDUR", "lat": 37.7166667, "long": 30.2833333 },
  { "name": "BURSA", "lat": 40.1955556, "long": 29.0602778 },
  { "name": "ÇANAKKALE", "lat": 40.1461111, "long": 26.4063889 },
  { "name": "ÇANKIRI", "lat": 40.6, "long": 33.6166667 },
  { "name": "ÇORUM", "lat": 40.55, "long": 34.95 },
  { "name": "DENİZLİ", "lat": 37.7761111, "long": 29.0863889 },
  { "name": "DİYARBAKIR", "lat": 37.920278, "long": 40.230556 },
  { "name": "DÜZCE", "lat": 40.8433333, "long": 31.1569444 },
  { "name": "EDİRNE", "lat": 41.6833333, "long": 26.5666667 },
  { "name": "ELAZIĞ", "lat": 38.6833333, "long": 39.2166667 },
  { "name": "ERZİNCAN", "lat": 39.75, "long": 39.5 },
  { "name": "ERZURUM", "lat": 39.9, "long": 41.2666667 },
  { "name": "ESKİŞEHİR", "lat": 39.776667, "long": 30.520556 },
  { "name": "GAZİANTEP", "lat": 37.0666667, "long": 37.3833333 },
  { "name": "GİRESUN", "lat": 40.9166667, "long": 38.4 },
  { "name": "GÜMÜŞHANE", "lat": 40.4666667, "long": 39.5 },
  { "name": "HAKKARİ", "lat": 37.5833333, "long": 43.7333333 },
  { "name": "HATAY", "lat": 36.3333333, "long": 36.3333333 },
  { "name": "IĞDIR", "lat": 39.9166667, "long": 44.0333333 },
  { "name": "ISPARTA", "lat": 37.7833333, "long": 30.55 },
  { "name": "İSTANBUL", "lat": 41.00527, "long": 28.97696 },
  { "name": "İZMİR", "lat": 38.4192, "long": 27.1287 },
  { "name": "KAHRAMANMARAŞ", "lat": 37.575, "long": 36.9372222 },
  { "name": "KARABÜK", "lat": 41.2, "long": 32.6166667 },
  { "name": "KARAMAN", "lat": 37.1811111, "long": 33.215 },
  { "name": "KARS", "lat": 40.6166667, "long": 43.1 },
  { "name": "KASTAMONU", "lat": 41.3833333, "long": 33.7833333 },
  { "name": "KAYSERİ", "lat": 38.7333333, "long": 35.4833333 },
  { "name": "KILIS", "lat": 36.7166667, "long": 37.1166667 },
  { "name": "KIRIKKALE", "lat": 39.8461111, "long": 33.5063889 },
  { "name": "KIRKLARELİ", "lat": 41.7333333, "long": 27.2166667 },
  { "name": "KIRŞEHİR", "lat": 39.15, "long": 34.1666667 },
  { "name": "KONYA", "lat": 37.8666667, "long": 32.4833333 },
  { "name": "KÜTAHYA", "lat": 39.4166667, "long": 29.9833333 },
  { "name": "MALATYA", "lat": 38.355, "long": 38.3094444 },
  { "name": "MANİSA", "lat": 38.6197222, "long": 27.4283333 },
  { "name": "MARDİN", "lat": 37.3211111, "long": 40.7241667 },
  { "name": "MERSİN", "lat": 36.8, "long": 34.6333333 },
  { "name": "MUĞLA", "lat": 37.2152778, "long": 28.3638889 },
  { "name": "MUŞ", "lat": 38.9463889, "long": 41.7536111 },
  { "name": "NEVŞEHİR", "lat": 38.6247222, "long": 34.7141667 },
  { "name": "NİĞDE", "lat": 37.9666667, "long": 34.6833333 },
  { "name": "ORDU", "lat": 40.9833333, "long": 37.8833333 },
  { "name": "OSMANİYE", "lat": 37.0747222, "long": 36.2447222 },
  { "name": "RİZE", "lat": 41.0208333, "long": 40.5211111 },
  { "name": "SAKARYA", "lat": 40.7761111, "long": 30.3969444 },
  { "name": "SAMSUN", "lat": 41.2866667, "long": 36.33 },
  { "name": "SİİRT", "lat": 37.9333333, "long": 41.9333333 },
  { "name": "SİNOP", "lat": 42.0236111, "long": 35.1536111 },
  { "name": "SİVAS", "lat": 39.75, "long": 37.0166667 },
  { "name": "ŞANLIURFA", "lat": 37.1666667, "long": 38.8 },
  { "name": "ŞIRNAK", "lat": 37.4183333, "long": 42.4916667 },
  { "name": "TEKİRDAĞ", "lat": 40.9833333, "long": 27.5166667 },
  { "name": "TOKAT", "lat": 40.3166667, "long": 36.55 },
  { "name": "TRABZON", "lat": 41, "long": 39.7166667 },
  { "name": "TUNCELİ", "lat": 39.1083333, "long": 39.5536111 },
  { "name": "UŞAK", "lat": 38.6825, "long": 29.4086111 },
  { "name": "VAN", "lat": 38.5011111, "long": 43.4163889 },
  { "name": "YOZGAT", "lat": 39.8166667, "long": 34.8166667 },
  { "name": "YALOVA", "lat": 40.6508333, "long": 29.2763889 },
  { "name": "ZONGULDAK", "lat": 41.45, "long": 31.7833333 }
]
